MessageType,Provider,LatitudeDegrees,LongitudeDegrees,AltitudeMeters,SpeedMps,AccuracyMeters,BearingDegrees,UnixTimeMillis,SpeedAccuracyMps,BearingAccuracyDegrees,elapsedRealtimeNanos,VerticalAccuracyMeters
Fix,GT,37.4282903000,-122.0725281000,-28.20880042884346,0.013611529,0.1,238.64088,1593045253440,,,,
Fix,GT,37.4282902000,-122.0725281000,-28.209800720214844,0.020511672,0.1,238.64206,1593045254440,,,,
Fix,GT,37.4282895000,-122.0725289000,-28.2218017578125,0.47322106,0.1,238.31201,1593045255440,,,,
Fix,GT,37.4282826000,-122.0725375000,-28.208161869589333,1.5512872,0.1,233.01088,1593045256440,,,,
Fix,GT,37.4282717000,-122.0725548000,-28.189848679529632,2.3169348,0.1,233.92097,1593045257440,,,,
Fix,GT,37.4282673000,-122.0725841000,-28.239572153133963,3.0183043,0.1,255.60587,1593045258440,,,,
Fix,GT,37.4282774000,-122.0726213000,-28.183752391089456,4.058316,0.1,286.56152,1593045259440,,,,
Fix,GT,37.4283042000,-122.0726667000,-28.231305653235268,6.075042,0.1,306.06757,1593045260440,,,,
Fix,GT,37.4283392000,-122.0727336000,-28.313257121931258,7.9996066,0.1,301.27417,1593045261440,,,,
Fix,GT,37.4283688000,-122.0728241000,-28.40148572024526,9.257176,0.1,288.57315,1593045262440,,,,
Fix,GT,37.4283836000,-122.0729343000,-28.472438416005843,10.432119,0.1,275.88873,1593045263440,,,,
Fix,GT,37.4283872000,-122.0730581000,-28.441296039381882,11.476551,0.1,270.44656,1593045264440,,,,
Fix,GT,37.4283855000,-122.0731938000,-28.345666866142665,12.50405,0.1,268.81915,1593045265440,,,,
Fix,GT,37.4283830000,-122.0733396000,-28.184067649797385,13.318168,0.1,269.0686,1593045266440,,,,
Fix,GT,37.4283820000,-122.0734955000,-28.07406810625571,14.27623,0.1,269.52063,1593045267440,,,,
Fix,GT,37.4283813000,-122.0736616000,-28.020211111618778,14.9529505,0.1,269.7542,1593045268440,,,,
Fix,GT,37.4283808000,-122.0738303000,-28.074666959364322,14.8696995,0.1,269.82727,1593045269440,,,,
Fix,GT,37.4283803000,-122.0739986000,-28.19435343456871,15.067646,0.1,269.71838,1593045270440,,,,
Fix,GT,37.4283793000,-122.0741726000,-28.281847681191834,15.66316,0.1,269.51123,1593045271440,,,,
Fix,GT,37.4283783000,-122.0743511000,-28.360125325078116,15.9346695,0.1,269.64856,1593045272440,,,,
Fix,GT,37.4283776000,-122.0745339000,-28.488944203339088,16.4443,0.1,269.91336,1593045273440,,,,
Fix,GT,37.4283779000,-122.0747233000,-28.74872552599078,17.106218,0.1,270.33618,1593045274440,,,,
Fix,GT,37.4283794000,-122.0749200000,-29.153314395346058,17.699331,0.1,270.5685,1593045275440,,,,
Fix,GT,37.4283808000,-122.0751224000,-29.608097336204196,18.05284,0.1,270.36063,1593045276440,,,,
Fix,GT,37.4283817000,-122.0753266000,-29.932628958299688,18.045935,0.1,270.4042,1593045277440,,,,
Fix,GT,37.4283828000,-122.0755296000,-30.078390891985237,17.908596,0.1,270.3536,1593045278440,,,,
Fix,GT,37.4283835000,-122.0757315000,-30.131028607719713,17.802687,0.1,270.1668,1593045279440,,,,
Fix,GT,37.4283839000,-122.0759313000,-30.189076589110527,17.574022,0.1,270.28702,1593045280440,,,,
Fix,GT,37.4283833000,-122.0761286000,-30.2395721484844,17.342264,0.1,268.99368,1593045281440,,,,
Fix,GT,37.4283760000,-122.0763238000,-30.298715190242092,17.293053,0.1,265.49265,1593045282440,,,,
Fix,GT,37.4283564000,-122.0765178000,-30.255887381269247,17.319107,0.1,260.44946,1593045283440,,,,
Fix,GT,37.4283233000,-122.0767094000,-30.18734362617181,17.348907,0.1,255.84668,1593045284440,,,,
Fix,GT,37.4282803000,-122.0768964000,-30.131297470572918,17.047623,0.1,252.87886,1593045285440,,,,
Fix,GT,37.4282347000,-122.0770772000,-30.04875299759135,16.419611,0.1,252.26596,1593045286440,,,,
Fix,GT,37.4281915000,-122.0772486000,-30.01216188251908,15.427304,0.1,253.24771,1593045287440,,,,
Fix,GT,37.4281584000,-122.0774118000,-30.035848231246746,14.362766,0.1,258.0067,1593045288440,,,,
Fix,GT,37.4281391000,-122.0775651000,-30.093077820304416,13.051125,0.1,262.99884,1593045289440,,,,
Fix,GT,37.4281305000,-122.0777015000,-30.15884854786202,11.120743,0.1,266.67435,1593045290440,,,,
Fix,GT,37.4281276000,-122.0778137000,-30.23525807008184,8.708578,0.1,268.68103,1593045291440,,,,
Fix,GT,37.4281271000,-122.0778977000,-30.27302970142898,6.239217,0.1,269.76276,1593045292440,,,,
Fix,GT,37.4281268000,-122.0779625000,-30.366076627734856,5.5839615,0.1,269.39487,1593045293440,,,,
Fix,GT,37.4281200000,-122.0780258000,-30.540305668494057,5.897669,0.1,259.2637,1593045294440,,,,
Fix,GT,37.4280949000,-122.0780888000,-30.588030234592452,6.4810405,0.1,239.11497,1593045295440,,,,
Fix,GT,37.4280491000,-122.0781422000,-30.575657714523004,7.4553022,0.1,217.72554,1593045296440,,,,
Fix,GT,37.4279828000,-122.0781797000,-30.65225866452306,8.70939,0.1,199.39444,1593045297440,,,,
Fix,GT,37.4278979000,-122.0781997000,-30.708123963057574,10.431437,0.1,186.7616,1593045298440,,,,
Fix,GT,37.4277968000,-122.0782038000,-30.762534122183183,11.969191,0.1,180.17145,1593045299440,,,,
Fix,GT,37.4276819000,-122.0782003000,-30.785172040150826,13.429582,0.1,177.7715,1593045300440,,,,
Fix,GT,37.4275560000,-122.0781911000,-30.781018745400786,14.477416,0.1,175.95543,1593045301440,,,,
Fix,GT,37.4274235000,-122.0781763000,-30.702754375403003,15.00316,0.1,174.0138,1593045302440,,,,
Fix,GT,37.4272872000,-122.0781558000,-30.64980125427246,15.430672,0.1,172.83195,1593045303440,,,,
Fix,GT,37.4271463000,-122.0781345000,-30.611344336531317,16.159,0.1,173.67204,1593045304440,,,,
Fix,GT,37.4269977000,-122.0781161000,-30.574342983366932,17.002367,0.1,174.91878,1593045305440,,,,
Fix,GT,37.4268418000,-122.0781009000,-30.521570833552857,17.674217,0.1,176.19408,1593045306440,,,,
Fix,GT,37.4266806000,-122.0780904000,-30.438886853682334,18.133392,0.1,177.7639,1593045307440,,,,
Fix,GT,37.4265157000,-122.0780854000,-30.40639191700484,18.485292,0.1,179.26445,1593045308440,,,,
Fix,GT,37.4263480000,-122.0780845000,-30.34270634814493,18.75696,0.1,180.1911,1593045309440,,,,
Fix,GT,37.4261774000,-122.0780874000,-30.29506781213047,19.13512,0.1,181.3261,1593045310440,,,,
Fix,GT,37.4260036000,-122.0780948000,-30.238114088520945,19.45554,0.1,182.5121,1593045311440,,,,
Fix,GT,37.4258284000,-122.0781067000,-30.15834353539003,19.395666,0.1,183.61147,1593045312440,,,,
Fix,GT,37.4256565000,-122.0781211000,-30.092344448795586,18.706284,0.1,183.9891,1593045313440,,,,
Fix,GT,37.4254959000,-122.0781337000,-30.04321020899806,16.840628,0.1,183.20909,1593045314440,,,,
Fix,GT,37.4253553000,-122.0781420000,-29.974210857937805,14.336441,0.1,182.30411,1593045315440,,,,
Fix,GT,37.4252377000,-122.0781475000,-29.92934344848686,11.712734,0.1,182.12906,1593045316440,,,,
Fix,GT,37.4251441000,-122.0781514000,-29.89739114047461,9.103987,0.1,181.72726,1593045317440,,,,
Fix,GT,37.4250731000,-122.0781534000,-29.86857187215844,6.904603,0.1,181.10953,1593045318440,,,,
Fix,GT,37.4250192000,-122.0781540000,-29.86739158053865,4.944125,0.1,180.41444,1593045319440,,,,
Fix,GT,37.4249842000,-122.0781538000,-29.861211001204083,2.8325589,0.1,179.82713,1593045320440,,,,
Fix,GT,37.4249653000,-122.0781537000,-29.87139040076056,1.5079119,0.1,179.58966,1593045321440,,,,
Fix,GT,37.4249562000,-122.0781536000,-29.868210970329073,0.49357003,0.1,179.53308,1593045322440,,,,
Fix,GT,37.4249548000,-122.0781536000,-29.874800745403718,0.01496939,0.1,179.52806,1593045323440,,,,
Fix,GT,37.4249548000,-122.0781536000,-29.874801635742188,0.0021393914,0.1,179.52814,1593045324440,,,,
Fix,GT,37.4249548000,-122.0781536000,-29.874801635742188,0.001,0.1,179.52629,1593045325440,,,,
Fix,GT,37.4249548000,-122.0781536000,-29.874801635742188,0.00081905694,0.1,179.52669,1593045326440,,,,
Fix,GT,37.4249548000,-122.0781536000,-29.874802526080657,0.0033503103,0.1,179.52757,1593045327440,,,,
Fix,GT,37.4249547000,-122.0781536000,-29.875619351933892,0.05349255,0.1,179.53075,1593045328440,,,,
Fix,GT,37.4249522000,-122.0781536000,-29.873799387401334,0.2743243,0.1,179.51057,1593045329440,,,,
Fix,GT,37.4249510000,-122.0781535000,-29.872800827026367,0.029512774,0.1,179.50612,1593045330440,,,,
Fix,GT,37.4249504000,-122.0781535000,-29.873799387401334,0.11809787,0.1,179.50336,1593045331440,,,,
Fix,GT,37.4249494000,-122.0781535000,-29.87180048609372,0.0301915,0.1,179.49023,1593045332440,,,,
Fix,GT,37.4249483000,-122.0781534000,-29.873210129546806,0.3006199,0.1,179.48335,1593045333440,,,,
Fix,GT,37.4249425000,-122.0781534000,-29.87139129277034,1.0091833,0.1,179.35555,1593045334440,,,,
Fix,GT,37.4249265000,-122.0781523000,-29.85298234138088,2.702723,0.1,177.99344,1593045335440,,,,
Fix,GT,37.4248936000,-122.0781503000,-29.834752565942438,4.5588617,0.1,177.38153,1593045336440,,,,
Fix,GT,37.4248428000,-122.0781481000,-29.828572871669394,7.010269,0.1,178.22865,1593045337440,,,,
Fix,GT,37.4247681000,-122.0781466000,-29.799980830967684,9.473523,0.1,179.30936,1593045338440,,,,
Fix,GT,37.4246751000,-122.0781455000,-29.768438936868847,10.998598,0.1,179.31378,1593045339440,,,,
Fix,GT,37.4245689000,-122.0781424000,-29.74057162062752,12.480372,0.1,178.35039,1593045340440,,,,
Fix,GT,37.4244521000,-122.0781361000,-29.704162135424554,13.3856945,0.1,177.21953,1593045341440,,,,
Fix,GT,37.4243286000,-122.0781275000,-29.626753273682425,14.031824,0.1,176.62665,1593045342440,,,,
Fix,GT,37.4242012000,-122.0781161000,-29.593934200690796,14.212734,0.1,175.44182,1593045343440,,,,
Fix,GT,37.4240747000,-122.0781022000,-29.567723771566705,13.961636,0.1,174.91504,1593045344440,,,,
Fix,GT,37.4239519000,-122.0780888000,-29.501666071976558,13.344049,0.1,175.20605,1593045345440,,,,
Fix,GT,37.4238353000,-122.0780772000,-29.481886404929355,12.523113,0.1,175.86018,1593045346440,,,,
Fix,GT,37.4237280000,-122.0780680000,-29.45166771300569,11.288543,0.1,176.3931,1593045347440,,,,
Fix,GT,37.4236349000,-122.0780623000,-29.416162917133306,9.427305,0.1,178.67163,1593045348440,,,,
Fix,GT,37.4235563000,-122.0780689000,-29.440982565131776,8.204828,0.1,187.26682,1593045349440,,,,
Fix,GT,37.4234899000,-122.0780977000,-29.496848635000333,7.7115326,0.1,205.76518,1593045350440,,,,
Fix,GT,37.4234423000,-122.0781576000,-29.53084736984823,7.6268115,0.1,232.85944,1593045351440,,,,
Fix,GT,37.4234201000,-122.0782410000,-29.586162995334462,8.322248,0.1,257.60983,1593045352440,,,,
Fix,GT,37.4234152000,-122.0783428000,-29.52793422542669,9.903414,0.1,268.24588,1593045353440,,,,
Fix,GT,37.4234126000,-122.0784646000,-29.443477886263565,11.661164,0.1,268.49725,1593045354440,,,,
Fix,GT,37.4234085000,-122.0786058000,-29.35747569181126,13.340171,0.1,267.77142,1593045355440,,,,
Fix,GT,37.4234030000,-122.0787658000,-29.236525531229404,14.985729,0.1,267.48016,1593045356440,,,,
Fix,GT,37.4233959000,-122.0789427000,-29.10011654714566,16.230398,0.1,267.19165,1593045357440,,,,
Fix,GT,37.4233884000,-122.0791314000,-28.93547759039211,17.134056,0.1,267.058,1593045358440,,,,
Fix,GT,37.4233799000,-122.0793284000,-28.803067462322304,17.768074,0.1,266.79077,1593045359440,,,,
Fix,GT,37.4233693000,-122.0795307000,-28.65302032229124,18.035334,0.1,265.88104,1593045360440,,,,
Fix,GT,37.4233557000,-122.0797349000,-28.503705709423002,18.274305,0.1,264.8132,1593045361440,,,,
Fix,GT,37.4233391000,-122.0799423000,-28.366294526321155,18.569508,0.1,263.97464,1593045362440,,,,
Fix,GT,37.4233205000,-122.0801500000,-28.288078290137037,18.37215,0.1,263.42972,1593045363440,,,,
Fix,GT,37.4233010000,-122.0803544000,-28.18456419741284,18.033857,0.1,263.03235,1593045364440,,,,
Fix,GT,37.4232800000,-122.0805544000,-28.20176333945392,17.708761,0.1,262.37277,1593045365440,,,,
Fix,GT,37.4232617000,-122.0807512000,-28.29953452483096,17.37031,0.1,263.98657,1593045366440,,,,
Fix,GT,37.4232471000,-122.0809448000,-28.38581060919705,17.057663,0.1,264.90973,1593045367440,,,,
Fix,GT,37.4232329000,-122.0811351000,-28.51512398426712,16.789799,0.1,264.47983,1593045368440,,,,
Fix,GT,37.4232178000,-122.0813225000,-28.65648592454511,16.545948,0.1,264.09094,1593045369440,,,,
Fix,GT,37.4232018000,-122.0815070000,-28.78899082660348,16.312616,0.1,263.70847,1593045370440,,,,
Fix,GT,37.4231863000,-122.0816889000,-28.941124580909673,16.073177,0.1,264.17902,1593045371440,,,,
Fix,GT,37.4231716000,-122.0818682000,-29.06176204448343,15.8393955,0.1,263.82394,1593045372440,,,,
Fix,GT,37.4231552000,-122.0820448000,-29.198221057373814,15.607918,0.1,263.16086,1593045373440,,,,
Fix,GT,37.4231384000,-122.0822193000,-29.326897811828758,15.599786,0.1,263.30756,1593045374440,,,,
Fix,GT,37.4231224000,-122.0823940000,-29.439895901237605,15.5029335,0.1,263.78653,1593045375440,,,,
Fix,GT,37.4231092000,-122.0825671000,-29.565306083100495,15.284491,0.1,265.3539,1593045376440,,,,
Fix,GT,37.4231001000,-122.0827379000,-29.69171385047565,15.0174885,0.1,266.7867,1593045377440,,,,
Fix,GT,37.4230936000,-122.0829058000,-29.781259218270293,14.748017,0.1,267.6562,1593045378440,,,,
Fix,GT,37.4230898000,-122.0830707000,-29.843849645382306,14.456097,0.1,269.1224,1593045379440,,,,
Fix,GT,37.4230891000,-122.0832328000,-29.8880303406213,14.367435,0.1,269.94577,1593045380440,,,,
Fix,GT,37.4230893000,-122.0833975000,-29.928075951202572,14.804131,0.1,270.37692,1593045381440,,,,
Fix,GT,37.4230914000,-122.0835679000,-29.98161911851463,15.452612,0.1,271.42392,1593045382440,,,,
Fix,GT,37.4230974000,-122.0837463000,-29.955934599261127,16.116333,0.1,273.2222,1593045383440,,,,
Fix,GT,37.4231074000,-122.0839311000,-29.889980982541374,16.707531,0.1,274.3268,1593045384440,,,,
Fix,GT,37.4231199000,-122.0841234000,-29.860028683743394,17.468119,0.1,275.23465,1593045385440,,,,
Fix,GT,37.4231364000,-122.0843231000,-29.80357212851004,18.04251,0.1,276.52597,1593045386440,,,,
Fix,GT,37.4231565000,-122.0845272000,-29.741343744246933,18.3423,0.1,277.51587,1593045387440,,,,
Fix,GT,37.4231793000,-122.0847336000,-29.675933023320283,18.544178,0.1,278.15152,1593045388440,,,,
Fix,GT,37.4232040000,-122.0849416000,-29.47633389369912,18.66103,0.1,278.90213,1593045389440,,,,
Fix,GT,37.4232315000,-122.0851492000,-29.085686626018287,18.575827,0.1,279.93237,1593045390440,,,,
Fix,GT,37.4232608000,-122.0853543000,-28.4495420470343,18.252922,0.1,280.40985,1593045391440,,,,
Fix,GT,37.4232907000,-122.0855544000,-27.757181409031773,17.835743,0.1,281.08633,1593045392440,,,,
Fix,GT,37.4233246000,-122.0857507000,-27.088590402068462,17.740692,0.1,283.24783,1593045393440,,,,
Fix,GT,37.4233626000,-122.0859444000,-26.549961902142172,17.576393,0.1,284.22577,1593045394440,,,,
Fix,GT,37.4234016000,-122.0861359000,-26.217201425792837,17.429028,0.1,284.50195,1593045395440,,,,
Fix,GT,37.4234410000,-122.0863262000,-25.99911470020379,17.422556,0.1,284.7346,1593045396440,,,,
Fix,GT,37.4234812000,-122.0865177000,-25.95952499341297,17.641628,0.1,284.7608,1593045397440,,,,
Fix,GT,37.4235218000,-122.0867118000,-26.0565336915638,17.88694,0.1,284.7003,1593045398440,,,,
Fix,GT,37.4235627000,-122.0869087000,-26.23036234227243,18.153252,0.1,284.58514,1593045399440,,,,
Fix,GT,37.4236039000,-122.0871092000,-26.65904923565205,18.503162,0.1,284.48816,1593045400440,,,,
Fix,GT,37.4236459000,-122.0873138000,-27.201468535037634,18.90208,0.1,284.4589,1593045401440,,,,
Fix,GT,37.4236888000,-122.0875230000,-27.900694772933832,19.345953,0.1,284.44678,1593045402440,,,,
Fix,GT,37.4237325000,-122.0877368000,-28.617514887818174,19.685331,0.1,284.49472,1593045403440,,,,
Fix,GT,37.4237771000,-122.0879523000,-29.255782251497067,19.712135,0.1,284.6226,1593045404440,,,,
Fix,GT,37.4238212000,-122.0881674000,-29.62126799656056,19.540812,0.1,284.09802,1593045405440,,,,
Fix,GT,37.4238627000,-122.0883803000,-29.859030132846442,19.231714,0.1,283.56918,1593045406440,,,,
Fix,GT,37.4239019000,-122.0885883000,-29.91680145263672,18.513721,0.1,283.17407,1593045407440,,,,
Fix,GT,37.4239388000,-122.0887870000,-29.96107782269064,17.600727,0.1,282.8379,1593045408440,,,,
Fix,GT,37.4239696000,-122.0889752000,-30.016981892913122,16.335455,0.1,280.23605,1593045409440,,,,
Fix,GT,37.4239885000,-122.0891503000,-30.079668001194023,14.926247,0.1,275.65228,1593045410440,,,,
Fix,GT,37.4239942000,-122.0893105000,-30.12225796428652,13.364429,0.1,270.57388,1593045411440,,,,
Fix,GT,37.4239917000,-122.0894524000,-30.14639079042297,11.731931,0.1,267.26382,1593045412440,,,,
Fix,GT,37.4239821000,-122.0895787000,-30.114115566442024,10.957614,0.1,262.82565,1593045413440,,,,
Fix,GT,37.4239631000,-122.0896972000,-30.00765717740029,10.360423,0.1,256.44257,1593045414440,,,,
Fix,GT,37.4239381000,-122.0898053000,-29.88334391328317,9.451487,0.1,253.6596,1593045415440,,,,
Fix,GT,37.4239193000,-122.0899011000,-29.768754335289714,8.080986,0.1,259.65463,1593045416440,,,,
Fix,GT,37.4239209000,-122.0899864000,-29.674611131621475,7.278716,0.1,276.92386,1593045417440,,,,
Fix,GT,37.4239461000,-122.0900579000,-29.437247932425635,6.8484073,0.1,300.01602,1593045418440,,,,
Fix,GT,37.4239923000,-122.0901113000,-29.34498265960218,7.456052,0.1,322.21893,1593045419440,,,,
Fix,GT,37.4240537000,-122.0901590000,-29.300753032337298,8.604242,0.1,328.5039,1593045420440,,,,
Fix,GT,37.4241240000,-122.0902147000,-29.283114180403118,9.918659,0.1,327.2613,1593045421440,,,,
Fix,GT,37.4242030000,-122.0902837000,-29.229343450932333,11.393219,0.1,323.96332,1593045422440,,,,
Fix,GT,37.4242870000,-122.0903680000,-29.173572167498605,12.416592,0.1,319.95993,1593045423440,,,,
Fix,GT,37.4243721000,-122.0904658000,-29.12616197371301,13.2105255,0.1,315.59625,1593045424440,,,,
Fix,GT,37.4244541000,-122.0905793000,-29.133619672625173,13.814812,0.1,310.1222,1593045425440,,,,
Fix,GT,37.4245305000,-122.0907055000,-29.169933342497416,14.168071,0.1,305.14243,1593045426440,,,,
Fix,GT,37.4245987000,-122.0908406000,-29.201848596265336,14.1612015,0.1,300.1907,1593045427440,,,,
Fix,GT,37.4246573000,-122.0909844000,-29.245668389935418,14.3922,0.1,294.66147,1593045428440,,,,
Fix,GT,37.4247052000,-122.0911366000,-29.289666236008316,14.479605,0.1,289.4978,1593045429440,,,,
Fix,GT,37.4247434000,-122.0912918000,-29.3253917591677,14.235022,0.1,285.67267,1593045430440,,,,
Fix,GT,37.4247760000,-122.0914459000,-29.271753695377583,13.940707,0.1,284.32123,1593045431440,,,,
Fix,GT,37.4248062000,-122.0915969000,-29.264981857450948,13.69867,0.1,284.17737,1593045432440,,,,
Fix,GT,37.4248374000,-122.0917484000,-29.189934662972803,14.089697,0.1,284.65955,1593045433440,,,,
Fix,GT,37.4248718000,-122.0919052000,-29.147752275391838,14.700329,0.1,286.09528,1593045434440,,,,
Fix,GT,37.4249120000,-122.0920665000,-29.16294486536168,15.214214,0.1,288.2572,1593045435440,,,,
Fix,GT,37.4249575000,-122.0922297000,-29.233305608894796,15.277029,0.1,290.08493,1593045436440,,,,
Fix,GT,37.4250073000,-122.0923898000,-29.260523878749325,15.159014,0.1,292.2835,1593045437440,,,,
Fix,GT,37.4250616000,-122.0925463000,-29.32043877584624,15.036661,0.1,294.48938,1593045438440,,,,
Fix,GT,37.4251196000,-122.0926987000,-29.354802052819764,14.899433,0.1,296.4057,1593045439440,,,,
Fix,GT,37.4251808000,-122.0928478000,-29.31911545098444,14.815787,0.1,297.96814,1593045440440,,,,
Fix,GT,37.4252461000,-122.0929939000,-29.241390997367034,14.894308,0.1,300.26678,1593045441440,,,,
Fix,GT,37.4253167000,-122.0931387000,-29.18116226768393,15.145366,0.1,302.5441,1593045442440,,,,
Fix,GT,37.4253929000,-122.0932797000,-29.227257539069797,14.983459,0.1,305.26096,1593045443440,,,,
Fix,GT,37.4254715000,-122.0934157000,-29.280448531499133,14.733244,0.1,306.39194,1593045444440,,,,
Fix,GT,37.4255504000,-122.0935474000,-29.318848409874818,14.4261675,0.1,307.7478,1593045445440,,,,
Fix,GT,37.4256320000,-122.0936730000,-29.376211273676745,14.261004,0.1,310.1129,1593045446440,,,,
Fix,GT,37.4257147000,-122.0937935000,-29.371525672566634,13.750773,0.1,311.09125,1593045447440,,,,
Fix,GT,37.4257947000,-122.0939067000,-29.317344769256692,13.094206,0.1,312.1968,1593045448440,,,,
Fix,GT,37.4258746000,-122.0940130000,-29.283523450885923,12.865049,0.1,314.0706,1593045449440,,,,
Fix,GT,37.4259580000,-122.0941166000,-29.222572811489897,13.310231,0.1,316.23083,1593045450440,,,,
Fix,GT,37.4260487000,-122.0942200000,-29.187210096890112,13.877566,0.1,318.99988,1593045451440,,,,
Fix,GT,37.4261470000,-122.0943215000,-29.217485719294928,14.43671,0.1,321.43536,1593045452440,,,,
Fix,GT,37.4262516000,-122.0944226000,-29.281304851033667,14.832918,0.1,322.91635,1593045453440,,,,
Fix,GT,37.4263596000,-122.0945237000,-29.33284835718291,15.008993,0.1,323.64093,1593045454440,,,,
Fix,GT,37.4264690000,-122.0946234000,-29.39166920615537,15.094103,0.1,324.4073,1593045455440,,,,
Fix,GT,37.4265824000,-122.0947188000,-29.36338986032638,15.123735,0.1,327.92795,1593045456440,,,,
Fix,GT,37.4266985000,-122.0948028000,-29.315752299422115,14.538664,0.1,331.37387,1593045457440,,,,
Fix,GT,37.4268107000,-122.0948760000,-29.255704387885544,13.637823,0.1,333.2062,1593045458440,,,,
Fix,GT,37.4269187000,-122.0949439000,-29.217981219230865,13.123762,0.1,333.28284,1593045459440,,,,
Fix,GT,37.4270199000,-122.0950109000,-29.206030281562334,12.193264,0.1,331.05463,1593045460440,,,,
Fix,GT,37.4271128000,-122.0950807000,-29.22302882818417,11.922644,0.1,327.83063,1593045461440,,,,
Fix,GT,37.4272032000,-122.0951566000,-29.27766801299549,12.343977,0.1,325.1167,1593045462440,,,,
Fix,GT,37.4272951000,-122.0952435000,-29.305391296688867,13.173033,0.1,321.62805,1593045463440,,,,
Fix,GT,37.4273867000,-122.0953424000,-29.33548662876717,13.591091,0.1,317.56107,1593045464440,,,,
Fix,GT,37.4274741000,-122.0954527000,-29.356800079345703,13.905958,0.1,312.89136,1593045465440,,,,
Fix,GT,37.4275548000,-122.0955721000,-29.343753049749466,13.747535,0.1,308.46814,1593045466440,,,,
Fix,GT,37.4276271000,-122.0956964000,-29.285704290120066,13.442385,0.1,304.5661,1593045467440,,,,
Fix,GT,37.4276920000,-122.0958230000,-29.245028967792507,13.273055,0.1,301.10568,1593045468440,,,,
Fix,GT,37.4277493000,-122.0959561000,-29.204752241099072,13.437607,0.1,296.31,1593045469440,,,,
Fix,GT,37.4277984000,-122.0960946000,-29.191800201183526,13.378311,0.1,292.30756,1593045470440,,,,
Fix,GT,37.4278400000,-122.0962379000,-29.243847566576562,13.687437,0.1,288.18564,1593045471440,,,,
Fix,GT,37.4278734000,-122.0963880000,-29.32466698815324,13.79907,0.1,283.79465,1593045472440,,,,
Fix,GT,37.4278982000,-122.0965397000,-29.357078671032923,13.595432,0.1,279.86853,1593045473440,,,,
Fix,GT,37.4279140000,-122.0966924000,-29.414571278125834,13.656803,0.1,275.53156,1593045474440,,,,
Fix,GT,37.4279207000,-122.0968456000,-29.471257280230475,13.459869,0.1,271.3539,1593045475440,,,,
Fix,GT,37.4279186000,-122.0969962000,-29.52021116014214,13.1799755,0.1,267.41293,1593045476440,,,,
Fix,GT,37.4279079000,-122.0971432000,-29.590124913032923,12.971069,0.1,262.77133,1593045477440,,,,
Fix,GT,37.4278889000,-122.0972806000,-29.63175404433565,11.470141,0.1,258.9093,1593045478440,,,,
Fix,GT,37.4278688000,-122.0973987000,-29.645877039797142,10.1189,0.1,257.43408,1593045479440,,,,
Fix,GT,37.4278501000,-122.0975031000,-29.59091446755707,8.74818,0.1,257.51715,1593045480440,,,,
Fix,GT,37.4278346000,-122.0975947000,-29.676304508026078,8.05483,0.1,258.10696,1593045481440,,,,
Fix,GT,37.4278193000,-122.0976831000,-29.738172152319294,7.9405346,0.1,257.4522,1593045482440,,,,
Fix,GT,37.4278034000,-122.0977704000,-29.74798254048727,7.957164,0.1,256.94464,1593045483440,,,,
Fix,GT,37.4277871000,-122.0978592000,-29.769849511988355,8.257026,0.1,256.97495,1593045484440,,,,
Fix,GT,37.4277699000,-122.0979530000,-29.79180145263672,8.753017,0.1,257.22897,1593045485440,,,,
Fix,GT,37.4277529000,-122.0980523000,-29.731849401660554,9.246213,0.1,258.98096,1593045486440,,,,
Fix,GT,37.4277383000,-122.0981583000,-29.774077595235894,9.824387,0.1,260.17804,1593045487440,,,,
Fix,GT,37.4277216000,-122.0982724000,-29.82016309576528,10.760699,0.1,259.27615,1593045488440,,,,
Fix,GT,37.4277027000,-122.0983959000,-29.78916295846591,11.452482,0.1,259.06882,1593045489440,,,,
Fix,GT,37.4276820000,-122.0985255000,-29.768619905796186,11.860704,0.1,258.48114,1593045490440,,,,
Fix,GT,37.4276601000,-122.0986574000,-29.795437488384266,11.904722,0.1,258.09238,1593045491440,,,,
Fix,GT,37.4276384000,-122.0987853000,-29.835029981094408,11.1280155,0.1,258.00793,1593045492440,,,,
Fix,GT,37.4276178000,-122.0989027000,-29.869030486379756,10.085723,0.1,257.389,1593045493440,,,,
Fix,GT,37.4275994000,-122.0990052000,-29.89584884726196,8.505272,0.1,257.29483,1593045494440,,,,
Fix,GT,37.4275831000,-122.0990927000,-29.912847372642148,7.357954,0.1,256.90884,1593045495440,,,,
Fix,GT,37.4275699000,-122.0991624000,-29.9259822810551,5.12362,0.1,256.87234,1593045496440,,,,
Fix,GT,37.4275619000,-122.0992064000,-29.938620872340266,3.255887,0.1,257.37323,1593045497440,,,,
Fix,GT,37.4275560000,-122.0992384000,-29.956848887727006,2.7427995,0.1,257.6751,1593045498440,,,,
Fix,GT,37.4275507000,-122.0992701000,-29.99643769220262,3.0158439,0.1,258.5672,1593045499440,,,,
Fix,GT,37.4275478000,-122.0993069000,-30.04384788515307,3.6737432,0.1,265.30826,1593045500440,,,,
Fix,GT,37.4275548000,-122.0993526000,-30.14071447123149,4.7079945,0.1,282.14084,1593045501440,,,,
Fix,GT,37.4275798000,-122.0994020000,-30.251028661537248,5.791978,0.1,305.9571,1593045502440,,,,
Fix,GT,37.4276262000,-122.0994429000,-30.31830645804081,7.0040617,0.1,329.1633,1593045503440,,,,
Fix,GT,37.4276929000,-122.0994729000,-30.286800384521484,8.739427,0.1,341.85883,1593045504440,,,,
Fix,GT,37.4277731000,-122.0995063000,-30.299800872802734,10.1644945,0.1,341.58542,1593045505440,,,,
Fix,GT,37.4278661000,-122.0995482000,-30.282209630032582,11.682042,0.1,340.02118,1593045506440,,,,
Fix,GT,37.4279707000,-122.0995967000,-30.27598153832696,13.1239395,0.1,339.78143,1593045507440,,,,
Fix,GT,37.4280869000,-122.0996501000,-30.31425651369574,14.287333,0.1,340.07944,1593045508440,,,,
Fix,GT,37.4282129000,-122.0997068000,-30.345256650100964,15.362028,0.1,340.40338,1593045509440,,,,
Fix,GT,37.4283472000,-122.0997670000,-30.388668038148808,16.212236,0.1,340.3107,1593045510440,,,,
Fix,GT,37.4284866000,-122.0998289000,-30.417619163398513,16.42727,0.1,340.80966,1593045511440,,,,
Fix,GT,37.4286260000,-122.0998888000,-30.445028679268944,16.361805,0.1,341.35773,1593045512440,,,,
Fix,GT,37.4287675000,-122.0999478000,-30.472752785756143,16.74784,0.1,341.84503,1593045513440,,,,
Fix,GT,37.4289123000,-122.1000073000,-30.490800857543945,17.035975,0.1,341.92026,1593045514440,,,,
Fix,GT,37.4290592000,-122.1000680000,-30.491210166081146,17.264635,0.1,341.73407,1593045515440,,,,
Fix,GT,37.4292060000,-122.1001294000,-30.523439010383413,17.069212,0.1,341.43906,1593045516440,,,,
Fix,GT,37.4293494000,-122.1001910000,-30.540257465338982,16.427334,0.1,340.82852,1593045517440,,,,
Fix,GT,37.4294845000,-122.1002499000,-30.587438967770595,15.323603,0.1,340.92328,1593045518440,,,,
Fix,GT,37.4296110000,-122.1003019000,-30.608800888061523,14.250643,0.1,342.58994,1593045519440,,,,
Fix,GT,37.4297314000,-122.1003452000,-30.683485241322046,13.649679,0.1,345.2016,1593045520440,,,,
Fix,GT,37.4298500000,-122.1003735000,-30.78884757357514,13.246953,0.1,352.47833,1593045521440,,,,
Fix,GT,37.4299655000,-122.1003773000,-30.7687525205763,12.453424,0.1,2.2827497,1593045522440,,,,
Fix,GT,37.4300735000,-122.1003578000,-30.656705500923977,11.908358,0.1,11.870026,1593045523440,,,,
Fix,GT,37.4301759000,-122.1003199000,-30.601344311321782,12.0044565,0.1,18.192238,1593045524440,,,,
Fix,GT,37.4302804000,-122.1002730000,-30.539294701531787,12.624653,0.1,20.50411,1593045525440,,,,
Fix,GT,37.4303863000,-122.1002219000,-30.492706851410276,12.381596,0.1,21.594694,1593045526440,,,,
Fix,GT,37.4304860000,-122.1001722000,-30.43893525285017,11.376717,0.1,21.10662,1593045527440,,,,
Fix,GT,37.4305790000,-122.1001415000,-30.390621330288525,10.100734,0.1,9.689779,1593045528440,,,,
Fix,GT,37.4306667000,-122.1001436000,-30.36502785235001,9.249793,0.1,353.33517,1593045529440,,,,
Fix,GT,37.4307426000,-122.1001763000,-30.32821005980577,8.322426,0.1,334.82953,1593045530440,,,,
Fix,GT,37.4307971000,-122.1002295000,-30.40307819485389,7.052747,0.1,318.30823,1593045531440,,,,
Fix,GT,37.4308421000,-122.1002851000,-30.434667568881423,6.9714193,0.1,315.2866,1593045532440,,,,
Fix,GT,37.4308885000,-122.1003389000,-30.577762030543624,7.195856,0.1,319.3245,1593045533440,,,,
Fix,GT,37.4309462000,-122.1003774000,-30.75448551415718,7.4177966,0.1,337.07114,1593045534440,,,,
Fix,GT,37.4310121000,-122.1003919000,-30.8115717343573,7.5673914,0.1,353.22742,1593045535440,,,,
Fix,GT,37.4310835000,-122.1003924000,-30.751343012423206,8.451472,0.1,1.4023418,1593045536440,,,,
Fix,GT,37.4311641000,-122.1003865000,-30.737572121608082,9.527398,0.1,3.8359303,1593045537440,,,,
Fix,GT,37.4312551000,-122.1003790000,-30.724838698575695,10.695663,0.1,3.9044387,1593045538440,,,,
Fix,GT,37.4313549000,-122.1003710000,-30.671934146206468,11.481202,0.1,3.492172,1593045539440,,,,
Fix,GT,37.4314607000,-122.1003616000,-30.59334376350091,11.88821,0.1,4.878766,1593045540440,,,,
Fix,GT,37.4315668000,-122.1003476000,-30.539705828087847,11.750038,0.1,6.397571,1593045541440,,,,
Fix,GT,37.4316711000,-122.1003330000,-30.456478291600718,11.672701,0.1,6.476041,1593045542440,,,,
Fix,GT,37.4317775000,-122.1003186000,-30.317247281843493,12.049929,0.1,6.213992,1593045543440,,,,
Fix,GT,37.4318847000,-122.1003034000,-30.133838312153216,11.794798,0.1,7.053465,1593045544440,,,,
Fix,GT,37.4319864000,-122.1002871000,-29.965657318838396,10.906872,0.1,7.668115,1593045545440,,,,
Fix,GT,37.4320778000,-122.1002693000,-29.811934422944887,9.546538,0.1,10.966729,1593045546440,,,,
Fix,GT,37.4321521000,-122.1002353000,-29.739752979948776,8.325191,0.1,26.157722,1593045547440,,,,
Fix,GT,37.4322051000,-122.1001749000,-29.651429532035536,7.8368683,0.1,49.61653,1593045548440,,,,
Fix,GT,37.4322327000,-122.1000944000,-29.566028091215742,8.143656,0.1,73.582634,1593045549440,,,,
Fix,GT,37.4322359000,-122.0999976000,-29.56280224212412,9.254065,0.1,91.96793,1593045550440,,,,
Fix,GT,37.4322248000,-122.0998863000,-29.592849449613993,10.630871,0.1,98.35685,1593045551440,,,,
Fix,GT,37.4322095000,-122.0997597000,-29.664392218480714,11.995021,0.1,98.789764,1593045552440,,,,
Fix,GT,37.4321934000,-122.0996198000,-29.68884811245539,12.961719,0.1,97.976166,1593045553440,,,,
Fix,GT,37.4321788000,-122.0994692000,-29.753124975675746,13.828459,0.1,96.47432,1593045554440,,,,
Fix,GT,37.4321659000,-122.0993110000,-29.760258474742614,14.193929,0.1,95.699394,1593045555440,,,,
Fix,GT,37.4321539000,-122.0991522000,-29.81403007050119,14.02623,0.1,95.41788,1593045556440,,,,
Fix,GT,37.4321419000,-122.0989953000,-29.883257666026793,13.937009,0.1,95.72368,1593045557440,,,,
Fix,GT,37.4321290000,-122.0988378000,-29.824210350080193,14.1000805,0.1,95.97957,1593045558440,,,,
Fix,GT,37.4321154000,-122.0986782000,-29.869478379368502,14.330864,0.1,96.2134,1593045559440,,,,
Fix,GT,37.4321005000,-122.0985180000,-29.839390808449195,14.164274,0.1,96.96353,1593045560440,,,,
Fix,GT,37.4320842000,-122.0983606000,-29.805210124124983,13.983728,0.1,97.62581,1593045561440,,,,
Fix,GT,37.4320667000,-122.0982059000,-29.841076128312864,13.56906,0.1,98.15574,1593045562440,,,,
Fix,GT,37.4320505000,-122.0980596000,-29.9142586953335,12.476934,0.1,97.281784,1593045563440,,,,
Fix,GT,37.4320392000,-122.0979294000,-29.955438108815315,10.664318,0.1,94.6527,1593045564440,,,,
Fix,GT,37.4320401000,-122.0978187000,-29.959800720214844,9.070546,0.1,85.584045,1593045565440,,,,
Fix,GT,37.4320598000,-122.0977245000,-29.931477528101027,8.150941,0.1,69.78597,1593045566440,,,,
Fix,GT,37.4320984000,-122.0976519000,-29.9260295825776,7.3362665,0.1,50.329144,1593045567440,,,,
Fix,GT,37.4321514000,-122.0976058000,-29.963752235814354,6.6550827,0.1,28.095228,1593045568440,,,,
Fix,GT,37.4322047000,-122.0975979000,-29.982802330935044,5.1760807,0.1,359.73892,1593045569440,,,,
Fix,GT,37.4322432000,-122.0976220000,-29.95657221617131,4.221379,0.1,329.11395,1593045570440,,,,
Fix,GT,37.4322613000,-122.0976614000,-30.006305286845077,3.7051716,0.1,299.3663,1593045571440,,,,
Fix,GT,37.4322677000,-122.0977037000,-30.14267815482674,3.6032362,0.1,281.9602,1593045572440,,,,
Fix,GT,37.4322719000,-122.0977449000,-30.024885461749307,3.77123,0.1,277.69702,1593045573440,,,,
Fix,GT,37.4322767000,-122.0977939000,-29.925161989061223,5.260919,0.1,276.83734,1593045574440,,,,
Fix,GT,37.4322843000,-122.0978665000,-29.89393337457068,7.649972,0.1,277.30338,1593045575440,,,,
Fix,GT,37.4322951000,-122.0979621000,-29.789524863717133,9.244896,0.1,278.16278,1593045576440,,,,
Fix,GT,37.4323082000,-122.0980707000,-29.692391212300663,10.082762,0.1,278.40918,1593045577440,,,,
Fix,GT,37.4323204000,-122.0981833000,-29.602296213600482,9.826176,0.1,276.70782,1593045578440,,,,
Fix,GT,37.4323216000,-122.0982875000,-29.53780174255371,8.541157,0.1,266.47778,1593045579440,,,,
Fix,GT,37.4323020000,-122.0983725000,-29.570847200867945,7.013639,0.1,247.85986,1593045580440,,,,
Fix,GT,37.4322692000,-122.0984298000,-29.687486998127724,5.4382095,0.1,230.58606,1593045581440,,,,
Fix,GT,37.4322335000,-122.0984612000,-29.709306306561416,3.9543467,0.1,213.12154,1593045582440,,,,
Fix,GT,37.4322073000,-122.0984749000,-29.80325774160542,2.8977113,0.1,205.0636,1593045583440,,,,
Fix,GT,37.4321858000,-122.0984943000,-30.056857865282325,3.3023076,0.1,215.72017,1593045584440,,,,
Fix,GT,37.4321682000,-122.0985336000,-29.92657242350026,4.8869066,0.1,240.84943,1593045585440,,,,
Fix,GT,37.4321617000,-122.0986019000,-29.887390016845814,7.5661488,0.1,266.15707,1593045586440,,,,
Fix,GT,37.4321680000,-122.0987028000,-29.897801336580528,10.367986,0.1,276.55765,1593045587440,,,,
Fix,GT,37.4321838000,-122.0988322000,-29.844029738020424,12.806504,0.1,278.67654,1593045588440,,,,
Fix,GT,37.4321993000,-122.0989870000,-29.882305509473554,14.692299,0.1,276.43594,1593045589440,,,,
Fix,GT,37.4322118000,-122.0991618000,-29.83611566651632,16.08926,0.1,274.56668,1593045590440,,,,
Fix,GT,37.4322222000,-122.0993451000,-29.756391515444875,16.263521,0.1,274.32504,1593045591440,,,,
Fix,GT,37.4322347000,-122.0995241000,-29.71057282201707,15.311171,0.1,275.5098,1593045592440,,,,
Fix,GT,37.4322484000,-122.0996872000,-29.648343291128867,13.660607,0.1,276.43076,1593045593440,,,,
Fix,GT,37.4322618000,-122.0998291000,-29.599524338241963,11.6134815,0.1,276.6302,1593045594440,,,,
Fix,GT,37.4322714000,-122.0999500000,-29.532391365901276,9.814639,0.1,275.2905,1593045595440,,,,
Fix,GT,37.4322786000,-122.1000464000,-29.512390908256748,7.201966,0.1,275.4782,1593045596440,,,,
Fix,GT,37.4322837000,-122.1001109000,-29.484799460029592,4.2259264,0.1,275.30634,1593045597440,,,,
Fix,GT,37.4322852000,-122.1001519000,-29.48557244144149,3.4389,0.1,271.61374,1593045598440,,,,
Fix,GT,37.4322769000,-122.1001959000,-29.475437794991137,4.916703,0.1,255.85358,1593045599440,,,,
Fix,GT,37.4322464000,-122.1002546000,-29.45683740804634,7.17418,0.1,232.03499,1593045600440,,,,
Fix,GT,37.4321846000,-122.1003056000,-29.449123225480037,9.152784,0.1,206.87459,1593045601440,,,,
Fix,GT,37.4320977000,-122.1003358000,-29.605171778724696,10.875507,0.1,191.41768,1593045602440,,,,
Fix,GT,37.4319911000,-122.1003544000,-29.814037866269814,12.972463,0.1,187.0994,1593045603440,,,,
Fix,GT,37.4318663000,-122.1003751000,-30.046171750323083,14.953208,0.1,188.02946,1593045604440,,,,
Fix,GT,37.4317272000,-122.1004035000,-30.280496864769702,16.127182,0.1,190.30606,1593045605440,,,,
Fix,GT,37.4315829000,-122.1004413000,-30.442534219842628,16.398165,0.1,192.67944,1593045606440,,,,
Fix,GT,37.4314423000,-122.1004830000,-30.584210577294016,15.64808,0.1,193.48608,1593045607440,,,,
Fix,GT,37.4313065000,-122.1005207000,-30.63011517609266,15.221014,0.1,191.45503,1593045608440,,,,
Fix,GT,37.4311752000,-122.1005488000,-30.65201995459438,14.041155,0.1,188.579,1593045609440,,,,
Fix,GT,37.4310578000,-122.1005689000,-30.658114141570422,12.259133,0.1,187.43808,1593045610440,,,,
Fix,GT,37.4309511000,-122.1005861000,-30.636027747355968,11.786101,0.1,187.13261,1593045611440,,,,
Fix,GT,37.4308433000,-122.1006010000,-30.625525458175048,12.455679,0.1,186.2144,1593045612440,,,,
Fix,GT,37.4307242000,-122.1006166000,-30.596068407849145,14.191265,0.1,185.8997,1593045613440,,,,
Fix,GT,37.4305897000,-122.1006357000,-30.422611471426194,15.757886,0.1,187.12201,1593045614440,,,,
Fix,GT,37.4304461000,-122.1006645000,-30.153104551579872,16.56183,0.1,191.00171,1593045615440,,,,
Fix,GT,37.4302984000,-122.1007096000,-29.958657388907056,17.219315,0.1,195.8383,1593045616440,,,,
Fix,GT,37.4301492000,-122.1007738000,-29.89393428705216,17.835936,0.1,201.52487,1593045617440,,,,
Fix,GT,37.4300002000,-122.1008566000,-29.72133372416016,18.33736,0.1,205.13818,1593045618440,,,,
Fix,GT,37.4298509000,-122.1009484000,-29.53662032750367,18.425373,0.1,207.59103,1593045619440,,,,
Fix,GT,37.4297075000,-122.1010459000,-29.670448910997038,17.80196,0.1,209.15605,1593045620440,,,,
Fix,GT,37.4295713000,-122.1011457000,-29.880678131934587,17.187683,0.1,211.8456,1593045621440,,,,
Fix,GT,37.4294491000,-122.1012570000,-30.07875369943349,16.484228,0.1,220.15108,1593045622440,,,,
Fix,GT,37.4293499000,-122.1013905000,-30.2254016992963,16.021656,0.1,233.21138,1593045623440,,,,
Fix,GT,37.4292839000,-122.1015475000,-30.31989792558545,15.619608,0.1,249.27376,1593045624440,,,,
Fix,GT,37.4292570000,-122.1017175000,-30.420486767044622,15.32449,0.1,266.43414,1593045625440,,,,
Fix,GT,37.4292732000,-122.1018896000,-30.4283061279275,15.687973,0.1,284.68945,1593045626440,,,,
Fix,GT,37.4293337000,-122.1020512000,-30.460163525817165,16.187918,0.1,303.1648,1593045627440,,,,
Fix,GT,37.4294313000,-122.1021919000,-30.32693485913751,17.010656,0.1,315.78937,1593045628440,,,,
Fix,GT,37.4295493000,-122.1023254000,-30.26266743828603,18.288248,0.1,318.71936,1593045629440,,,,
Fix,GT,37.4296796000,-122.1024709000,-30.250752680074356,20.458134,0.1,317.90698,1593045630440,,,,
Fix,GT,37.4298224000,-122.1026356000,-30.218248102177313,22.601612,0.1,317.26453,1593045631440,,,,
Fix,GT,37.4299780000,-122.1028176000,-30.144259343474573,24.454317,0.1,316.93845,1593045632440,,,,
Fix,GT,37.4301441000,-122.1030112000,-30.150114876340467,25.842121,0.1,317.3713,1593045633440,,,,
Fix,GT,37.4303201000,-122.1032119000,-30.06352596600692,26.929434,0.1,318.16998,1593045634440,,,,
Fix,GT,37.4305046000,-122.1034174000,-30.04226855595607,27.869682,0.1,318.6211,1593045635440,,,,
Fix,GT,37.4306951000,-122.1036269000,-29.931800842285156,28.231617,0.1,319.06223,1593045636440,,,,
Fix,GT,37.4308872000,-122.1038335000,-29.84147767115428,27.928913,0.1,319.73804,1593045637440,,,,
Fix,GT,37.4310780000,-122.1040357000,-29.577515616549135,27.519587,0.1,319.78232,1593045638440,,,,
Fix,GT,37.4312646000,-122.1042351000,-29.24387688613956,26.689228,0.1,319.45444,1593045639440,,,,
Fix,GT,37.4314433000,-122.1044270000,-28.919105367627367,25.669348,0.1,319.452,1593045640440,,,,
Fix,GT,37.4316163000,-122.1046166000,-28.602058383048814,25.386894,0.1,318.17868,1593045641440,,,,
Fix,GT,37.4317866000,-122.1048103000,-28.367657583271466,25.73124,0.1,317.65536,1593045642440,,,,
Fix,GT,37.4319607000,-122.1050084000,-28.14960989325118,26.389566,0.1,318.2882,1593045643440,,,,
Fix,GT,37.4321426000,-122.1052075000,-28.11343998539138,27.258736,0.1,319.45212,1593045644440,,,,
Fix,GT,37.4323329000,-122.1054098000,-28.070295796670393,28.08354,0.1,319.93256,1593045645440,,,,
Fix,GT,37.4325312000,-122.1056186000,-28.157944469735867,29.400457,0.1,320.0807,1593045646440,,,,
Fix,GT,37.4327369000,-122.1058345000,-28.370676968816497,29.980549,0.1,320.12332,1593045647440,,,,
Fix,GT,37.4329449000,-122.1060522000,-28.70431655460652,30.171753,0.1,320.2529,1593045648440,,,,
Fix,GT,37.4331542000,-122.1062704000,-29.05418251189178,30.206074,0.1,320.32938,1593045649440,,,,
Fix,GT,37.4333637000,-122.1064880000,-29.379267561398933,30.17517,0.1,320.20557,1593045650440,,,,
Fix,GT,37.4335717000,-122.1067072000,-29.662485322529847,30.13423,0.1,319.8859,1593045651440,,,,
Fix,GT,37.4337787000,-122.1069259000,-29.739849567422993,29.910942,0.1,319.95316,1593045652440,,,,
Fix,GT,37.4339837000,-122.1071421000,-29.737619755599553,29.537497,0.1,319.91443,1593045653440,,,,
Fix,GT,37.4341859000,-122.1073562000,-29.740800857543945,29.191261,0.1,319.9054,1593045654440,,,,
Fix,GT,37.4343860000,-122.1075673000,-29.757849215218755,28.858261,0.1,320.03214,1593045655440,,,,
Fix,GT,37.4345842000,-122.1077755000,-29.735573341526504,28.522547,0.1,320.12906,1593045656440,,,,
Fix,GT,37.4347801000,-122.1079814000,-29.757935515915108,28.213017,0.1,320.05136,1593045657440,,,,
Fix,GT,37.4349740000,-122.1081846000,-29.758752349814984,27.829319,0.1,320.27438,1593045658440,,,,
Fix,GT,37.4351653000,-122.1083843000,-29.73211474000226,27.457432,0.1,320.19522,1593045659440,,,,
Fix,GT,37.4353541000,-122.1085824000,-29.73602902813343,27.176804,0.1,320.15695,1593045660440,,,,
Fix,GT,37.4355411000,-122.1087782000,-29.768619002740877,26.895943,0.1,320.1883,1593045661440,,,,
Fix,GT,37.4357260000,-122.1089719000,-29.75884801107378,26.58939,0.1,320.1938,1593045662440,,,,
Fix,GT,37.4359091000,-122.1091633000,-29.75875324286676,26.306732,0.1,320.27295,1593045663440,,,,
Fix,GT,37.4360910000,-122.1093533000,-29.729801177978516,26.31341,0.1,320.18762,1593045664440,,,,
Fix,GT,37.4362745000,-122.1095459000,-29.703162686677956,26.730839,0.1,320.09723,1593045665440,,,,
Fix,GT,37.4364587000,-122.1097392000,-29.689983121630462,26.522514,0.1,320.1231,1593045666440,,,,
Fix,GT,37.4366413000,-122.1099310000,-29.68498106542137,26.4145,0.1,320.12564,1593045667440,,,,
Fix,GT,37.4368243000,-122.1101224000,-29.668438553134536,26.471016,0.1,320.27222,1593045668440,,,,
Fix,GT,37.4370076000,-122.1103130000,-29.642028275749396,26.395145,0.1,320.31686,1593045669440,,,,
Fix,GT,37.4371906000,-122.1105056000,-29.607800554996686,26.716314,0.1,319.7605,1593045670440,,,,
Fix,GT,37.4373762000,-122.1107036000,-29.608570775410385,27.356663,0.1,319.5728,1593045671440,,,,
Fix,GT,37.4375650000,-122.1109050000,-29.55721102265852,27.58065,0.1,319.92126,1593045672440,,,,
Fix,GT,37.4377554000,-122.1111051000,-29.515982454632308,27.573257,0.1,320.06616,1593045673440,,,,
Fix,GT,37.4379457000,-122.1113046000,-29.51557403627953,27.492887,0.1,320.22784,1593045674440,,,,
Fix,GT,37.4381361000,-122.1115038000,-29.487620623115617,27.576519,0.1,320.17188,1593045675440,,,,
Fix,GT,37.4383269000,-122.1117042000,-29.46975370564155,27.593224,0.1,320.07355,1593045676440,,,,
Fix,GT,37.4385165000,-122.1119036000,-29.45780094093675,27.337334,0.1,320.03665,1593045677440,,,,
Fix,GT,37.4387057000,-122.1121021000,-29.4768009185791,27.491634,0.1,320.1673,1593045678440,,,,
Fix,GT,37.4388965000,-122.1123019000,-29.448935537342777,27.60511,0.1,320.22067,1593045679440,,,,
Fix,GT,37.4390873000,-122.1125016000,-29.30101945792586,27.58537,0.1,320.18973,1593045680440,,,,
Fix,GT,37.4392782000,-122.1127014000,-29.122742397615525,27.605227,0.1,320.1814,1593045681440,,,,
Fix,GT,37.4394698000,-122.1129024000,-28.82656289138049,27.854244,0.1,319.97296,1593045682440,,,,
Fix,GT,37.4396632000,-122.1131064000,-28.547876086412543,28.329987,0.1,320.12292,1593045683440,,,,
Fix,GT,37.4398612000,-122.1133138000,-28.29015234742525,28.935324,0.1,320.16574,1593045684440,,,,
Fix,GT,37.4400633000,-122.1135262000,-28.208439260095247,29.589516,0.1,319.95984,1593045685440,,,,
Fix,GT,37.4402689000,-122.1137435000,-28.183297623513624,30.048569,0.1,319.9247,1593045686440,,,,
Fix,GT,37.4404762000,-122.1139621000,-28.23590647702264,29.96331,0.1,320.14374,1593045687440,,,,
Fix,GT,37.4406827000,-122.1141782000,-28.520952693043796,29.7444,0.1,320.18243,1593045688440,,,,
Fix,GT,37.4408875000,-122.1143930000,-28.855495252879223,29.466904,0.1,320.06332,1593045689440,,,,
Fix,GT,37.4410895000,-122.1146056000,-29.176857244397524,29.084606,0.1,320.09567,1593045690440,,,,
Fix,GT,37.4412890000,-122.1148155000,-29.35612461073481,28.689354,0.1,320.04684,1593045691440,,,,
Fix,GT,37.4414860000,-122.1150218000,-29.39420915129739,28.288643,0.1,320.35086,1593045692440,,,,
Fix,GT,37.4416804000,-122.1152250000,-29.371571296148545,27.870903,0.1,320.12955,1593045693440,,,,
Fix,GT,37.4418721000,-122.1154251000,-29.34980010986328,27.526682,0.1,320.4847,1593045694440,,,,
Fix,GT,37.4420623000,-122.1156224000,-29.361391856735736,27.272175,0.1,320.4157,1593045695440,,,,
Fix,GT,37.4422502000,-122.1158193000,-29.374210349046848,27.094404,0.1,319.956,1593045696440,,,,
Fix,GT,37.4424362000,-122.1160166000,-29.35802872957038,27.007011,0.1,319.79245,1593045697440,,,,
Fix,GT,37.4426228000,-122.1162142000,-29.353801727294922,27.209812,0.1,319.983,1593045698440,,,,
Fix,GT,37.4428107000,-122.1164124000,-29.375801961892876,27.312546,0.1,320.00787,1593045699440,,,,
Fix,GT,37.4429991000,-122.1166118000,-29.387620123402712,27.428139,0.1,319.90372,1593045700440,,,,
Fix,GT,37.4431889000,-122.1168119000,-29.38680076599121,27.579088,0.1,320.06204,1593045701440,,,,
Fix,GT,37.4433801000,-122.1170119000,-29.366439335831046,27.66484,0.1,320.4416,1593045702440,,,,
Fix,GT,37.4435722000,-122.1172107000,-29.38662076388522,27.605408,0.1,320.5265,1593045703440,,,,
Fix,GT,37.4437634000,-122.1174090000,-29.358114357413513,27.474586,0.1,320.3378,1593045704440,,,,
Fix,GT,37.4439527000,-122.1176067000,-29.37902862424778,27.179516,0.1,320.15738,1593045705440,,,,
Fix,GT,37.4441390000,-122.1178033000,-29.3898001495063,26.854626,0.1,319.88477,1593045706440,,,,
Fix,GT,37.4443228000,-122.1179979000,-29.41862025190676,26.550316,0.1,319.85532,1593045707440,,,,
Fix,GT,37.4445044000,-122.1181906000,-29.427171836967204,26.256516,0.1,319.73508,1593045708440,,,,
Fix,GT,37.4446839000,-122.1183815000,-29.44602908136102,25.97729,0.1,319.9474,1593045709440,,,,
Fix,GT,37.4448636000,-122.1185677000,-29.46439260361791,25.836666,0.1,320.8891,1593045710440,,,,
Fix,GT,37.4450446000,-122.1187535000,-29.45807824872287,26.128197,0.1,320.59772,1593045711440,,,,
Fix,GT,37.4452269000,-122.1189431000,-29.48466748408873,26.435944,0.1,320.28027,1593045712440,,,,
Fix,GT,37.4454107000,-122.1191350000,-29.509848236988205,26.624401,0.1,320.2741,1593045713440,,,,
Fix,GT,37.4455948000,-122.1193269000,-29.4990285673,26.430285,0.1,320.33557,1593045714440,,,,
Fix,GT,37.4457768000,-122.1195164000,-29.513666950668892,26.054085,0.1,320.39948,1593045715440,,,,
Fix,GT,37.4459566000,-122.1197021000,-29.495208967096573,25.66124,0.1,320.6711,1593045716440,,,,
Fix,GT,37.4461341000,-122.1198851000,-29.484572202947277,25.427982,0.1,320.43008,1593045717440,,,,
Fix,GT,37.4463108000,-122.1200701000,-29.483344469290387,25.66703,0.1,319.99097,1593045718440,,,,
Fix,GT,37.4464874000,-122.1202565000,-29.488438157962662,25.489933,0.1,320.00146,1593045719440,,,,
Fix,GT,37.4466623000,-122.1204403000,-29.50339128815631,25.163448,0.1,320.15555,1593045720440,,,,
Fix,GT,37.4468350000,-122.1206214000,-29.525982483287123,24.781242,0.1,320.07166,1593045721440,,,,
Fix,GT,37.4470046000,-122.1208003000,-29.541981570833627,24.418953,0.1,319.91656,1593045722440,,,,
Fix,GT,37.4471717000,-122.1209768000,-29.542391628024234,24.094654,0.1,319.9304,1593045723440,,,,
Fix,GT,37.4473366000,-122.1211512000,-29.54380123447777,23.785072,0.1,319.8614,1593045724440,,,,
Fix,GT,37.4475000000,-122.1213243000,-29.550621083735848,23.763834,0.1,319.8162,1593045725440,,,,
Fix,GT,37.4476646000,-122.1214996000,-29.55866787286618,24.221178,0.1,319.71777,1593045726440,,,,
Fix,GT,37.4478337000,-122.1216790000,-29.565391565739105,24.803877,0.1,319.97498,1593045727440,,,,
Fix,GT,37.4480060000,-122.1218601000,-29.524161950999428,25.012762,0.1,320.1233,1593045728440,,,,
Fix,GT,37.4481785000,-122.1220406000,-29.46179171329254,24.815926,0.1,320.37952,1593045729440,,,,
Fix,GT,37.4483493000,-122.1222185000,-29.37629503456094,24.48114,0.1,320.20795,1593045730440,,,,
Fix,GT,37.4485172000,-122.1223950000,-29.29275291841742,24.120567,0.1,320.10007,1593045731440,,,,
Fix,GT,37.4486827000,-122.1225685000,-29.268068100896244,23.773743,0.1,320.22388,1593045732440,,,,
Fix,GT,37.4488461000,-122.1227390000,-29.147887140244165,23.400084,0.1,320.39136,1593045733440,,,,
Fix,GT,37.4490080000,-122.1229069000,-29.0749342965878,23.302902,0.1,320.56152,1593045734440,,,,
Fix,GT,37.4491708000,-122.1230745000,-28.96424809561546,23.470482,0.1,320.62866,1593045735440,,,,
Fix,GT,37.4493345000,-122.1232448000,-28.87779215555679,23.772758,0.1,320.23492,1593045736440,,,,
Fix,GT,37.4495001000,-122.1234188000,-28.689116396984275,24.158447,0.1,320.00165,1593045737440,,,,
Fix,GT,37.4496677000,-122.1235952000,-28.570249105412927,24.350964,0.1,319.97943,1593045738440,,,,
Fix,GT,37.4498355000,-122.1237722000,-28.47088628480759,24.318913,0.1,320.00623,1593045739440,,,,
Fix,GT,37.4500032000,-122.1239490000,-28.354067476351247,24.339865,0.1,319.9468,1593045740440,,,,
Fix,GT,37.4501713000,-122.1241270000,-28.24088647885901,24.521423,0.1,319.82123,1593045741440,,,,
Fix,GT,37.4503406000,-122.1243076000,-28.11088648768589,24.785019,0.1,319.4993,1593045742440,,,,
Fix,GT,37.4505107000,-122.1244914000,-27.929067433054286,25.030182,0.1,319.1506,1593045743440,,,,
Fix,GT,37.4506812000,-122.1246790000,-27.803430715291142,25.323784,0.1,318.52405,1593045744440,,,,
Fix,GT,37.4508497000,-122.1248683000,-27.70888692088488,24.569733,0.1,318.0558,1593045745440,,,,
Fix,GT,37.4510088000,-122.1250497000,-27.603933675268763,23.160816,0.1,317.78912,1593045746440,,,,
Fix,GT,37.4511597000,-122.1252227000,-27.501706099240096,22.383408,0.1,317.3891,1593045747440,,,,
Fix,GT,37.4513053000,-122.1253947000,-27.396068183732893,22.009312,0.1,316.07513,1593045748440,,,,
Fix,GT,37.4514449000,-122.1255699000,-27.318114505821654,21.89943,0.1,313.75827,1593045749440,,,,
Fix,GT,37.4515782000,-122.1257544000,-27.27175312624098,22.604694,0.1,311.18503,1593045750440,,,,
Fix,GT,37.4517164000,-122.1259592000,-27.20088676903788,24.83577,0.1,309.6793,1593045751440,,,,
Fix,GT,37.4518653000,-122.1261847000,-27.116020452072917,26.983574,0.1,310.17938,1593045752440,,,,
Fix,GT,37.4520298000,-122.1264255000,-26.98511435838634,29.073452,0.1,310.58643,1593045753440,,,,
Fix,GT,37.4522014000,-122.1266799000,-26.847383272137904,29.492886,0.1,309.9706,1593045754440,,,,
Fix,GT,37.4523693000,-122.1269369000,-26.5078867930863,29.24242,0.1,308.71487,1593045755440,,,,
Fix,GT,37.4525304000,-122.1271967000,-26.221744496341955,29.098766,0.1,306.84018,1593045756440,,,,
Fix,GT,37.4526858000,-122.1274631000,-26.012486146639162,29.424171,0.1,305.51712,1593045757440,,,,
Fix,GT,37.4528399000,-122.1277423000,-25.965571371558042,30.721838,0.1,304.33005,1593045758440,,,,
Fix,GT,37.4529980000,-122.1280339000,-25.913620249777523,31.460651,0.1,304.55963,1593045759440,,,,
Fix,GT,37.4531611000,-122.1283260000,-26.000636646847397,31.666344,0.1,305.68393,1593045760440,,,,
Fix,GT,37.4533286000,-122.1286155000,-26.208116698221488,31.558764,0.1,306.24,1593045761440,,,,
Fix,GT,37.4534959000,-122.1289021000,-26.21525804901603,31.300858,0.1,306.3178,1593045762440,,,,
Fix,GT,37.4536622000,-122.1291860000,-26.22921097780909,31.028826,0.1,306.2705,1593045763440,,,,
Fix,GT,37.4538272000,-122.1294683000,-26.22543843914957,30.979454,0.1,306.26147,1593045764440,,,,
Fix,GT,37.4539924000,-122.1297513000,-26.24057178014334,31.118177,0.1,306.2446,1593045765440,,,,
Fix,GT,37.4541593000,-122.1300364000,-26.280753651880218,31.482231,0.1,306.4818,1593045766440,,,,
Fix,GT,37.4543284000,-122.1303236000,-26.301391652976235,31.663158,0.1,306.52774,1593045767440,,,,
Fix,GT,37.4544980000,-122.1306116000,-26.318982055919605,31.737514,0.1,306.36356,1593045768440,,,,
Fix,GT,37.4546680000,-122.1309028000,-26.336210198008303,32.153862,0.1,306.17108,1593045769440,,,,
Fix,GT,37.4548401000,-122.1311983000,-26.344257723690816,32.591114,0.1,306.22742,1593045770440,,,,
Fix,GT,37.4550146000,-122.1314960000,-26.359982426423812,32.819893,0.1,306.56955,1593045771440,,,,
Fix,GT,37.4551920000,-122.1317946000,-26.394981488670453,33.014244,0.1,307.05298,1593045772440,,,,
Fix,GT,37.4553724000,-122.1320916000,-26.410211513503896,33.059013,0.1,307.66425,1593045773440,,,,
Fix,GT,37.4555550000,-122.1323872000,-26.4573047622265,33.121643,0.1,308.02856,1593045774440,,,,
Fix,GT,37.4557388000,-122.1326825000,-26.51643877436834,33.176132,0.1,307.8507,1593045775440,,,,
Fix,GT,37.4559218000,-122.1329795000,-26.52725826466053,33.248547,0.1,307.62878,1593045776440,,,,
Fix,GT,37.4561044000,-122.1332777000,-26.531705392882316,33.28031,0.1,307.42422,1593045777440,,,,
Fix,GT,37.4562852000,-122.1335776000,-26.43729708786509,33.24152,0.1,306.87082,1593045778440,,,,
Fix,GT,37.4564642000,-122.1338785000,-26.315611564833716,33.228973,0.1,306.6345,1593045779440,,,,
Fix,GT,37.4566423000,-122.1341806000,-26.150250276451516,33.25319,0.1,306.34305,1593045780440,,,,
Fix,GT,37.4568198000,-122.1344837000,-26.00524904821475,33.300114,0.1,306.28674,1593045781440,,,,
Fix,GT,37.4569977000,-122.1347871000,-25.83247853589552,33.316658,0.1,306.42795,1593045782440,,,,
Fix,GT,37.4571760000,-122.1350901000,-25.671296372310394,33.344803,0.1,306.50006,1593045783440,,,,
Fix,GT,37.4573547000,-122.1353935000,-25.525248775113596,33.38395,0.1,306.39853,1593045784440,,,,
Fix,GT,37.4575322000,-122.1356964000,-25.33584000683186,33.06598,0.1,306.39468,1593045785440,,,,
Fix,GT,37.4577074000,-122.1359955000,-25.194431162530236,32.629776,0.1,306.33304,1593045786440,,,,
Fix,GT,37.4578803000,-122.1362909000,-25.07725036082519,32.205795,0.1,306.37604,1593045787440,,,,
Fix,GT,37.4580513000,-122.1365823000,-24.947886858488403,31.815937,0.1,306.44424,1593045788440,,,,
Fix,GT,37.4582206000,-122.1368698000,-24.86961216371759,31.45351,0.1,306.5897,1593045789440,,,,
Fix,GT,37.4583884000,-122.1371537000,-24.740839971263767,31.090881,0.1,306.5675,1593045790440,,,,
Fix,GT,37.4585545000,-122.1374341000,-24.620524862718185,30.685907,0.1,306.7602,1593045791440,,,,
Fix,GT,37.4587188000,-122.1377100000,-24.534115589841804,30.282928,0.1,306.89188,1593045792440,,,,
Fix,GT,37.4588817000,-122.1379822000,-24.51480029479262,29.942533,0.1,306.9521,1593045793440,,,,
Fix,GT,37.4590427000,-122.1382531000,-24.54684864043486,29.948757,0.1,306.85052,1593045794440,,,,
Fix,GT,37.4592083000,-122.1385243000,-24.621258785026384,30.56596,0.1,308.3799,1593045795440,,,,
Fix,GT,37.4593827000,-122.1387994000,-24.712304934345468,31.621277,0.1,308.48593,1593045796440,,,,
Fix,GT,37.4595603000,-122.1390859000,-24.77412455255586,32.547604,0.1,307.29108,1593045797440,,,,
Fix,GT,37.4597385000,-122.1393816000,-24.82871484250927,33.02622,0.1,306.94223,1593045798440,,,,
Fix,GT,37.4599176000,-122.1396813000,-24.90684884800055,33.19399,0.1,306.86652,1593045799440,,,,
Fix,GT,37.4600964000,-122.1399822000,-24.96325708257268,33.121056,0.1,306.67126,1593045800440,,,,
Fix,GT,37.4602726000,-122.1402810000,-24.984620117509735,32.61032,0.1,306.35703,1593045801440,,,,
Fix,GT,37.4604456000,-122.1405762000,-24.99857318419697,32.272392,0.1,306.417,1593045802440,,,,
Fix,GT,37.4606176000,-122.1408693000,-24.93506937809434,32.19104,0.1,306.28824,1593045803440,,,,
Fix,GT,37.4607886000,-122.1411641000,-24.89634565201851,32.320427,0.1,305.94452,1593045804440,,,,
Fix,GT,37.4609600000,-122.1414606000,-24.82357278650943,32.482864,0.1,306.08835,1593045805440,,,,
Fix,GT,37.4611333000,-122.1417578000,-24.75547832434313,32.660923,0.1,306.4234,1593045806440,,,,
Fix,GT,37.4613082000,-122.1420560000,-24.676934668543083,32.878826,0.1,306.35635,1593045807440,,,,
Fix,GT,37.4614839000,-122.1423572000,-24.60611507213747,33.17281,0.1,306.18253,1593045808440,,,,
Fix,GT,37.4616609000,-122.1426610000,-24.509887282157706,33.38409,0.1,306.3604,1593045809440,,,,
Fix,GT,37.4618394000,-122.1429655000,-24.46775335088671,33.487335,0.1,306.44928,1593045810440,,,,
Fix,GT,37.4620185000,-122.1432704000,-24.448029391931925,33.489822,0.1,306.3932,1593045811440,,,,
Fix,GT,37.4621963000,-122.1435756000,-24.50648454700496,33.40108,0.1,306.12393,1593045812440,,,,
Fix,GT,37.4623737000,-122.1438807000,-24.617439234637118,33.460236,0.1,306.18326,1593045813440,,,,
Fix,GT,37.4625519000,-122.1441866000,-24.76511619652831,33.590797,0.1,306.2163,1593045814440,,,,
Fix,GT,37.4627310000,-122.1444935000,-24.813981833981416,33.682278,0.1,306.2476,1593045815440,,,,
Fix,GT,37.4629106000,-122.1448004000,-24.8240300114677,33.701057,0.1,306.50266,1593045816440,,,,
Fix,GT,37.4630916000,-122.1451073000,-24.82861995752171,33.862446,0.1,306.51724,1593045817440,,,,
Fix,GT,37.4632731000,-122.1454164000,-24.728659030952258,34.050415,0.1,306.32266,1593045818440,,,,
Fix,GT,37.4634553000,-122.1457263000,-24.567383964995088,34.05678,0.1,306.59924,1593045819440,,,,
Fix,GT,37.4636382000,-122.1460351000,-24.345793847337745,34.028755,0.1,306.62833,1593045820440,,,,
Fix,GT,37.4638209000,-122.1463450000,-24.112793997419885,34.218483,0.1,306.3488,1593045821440,,,,
Fix,GT,37.4640038000,-122.1466585000,-23.865288895639708,34.50273,0.1,306.13367,1593045822440,,,,
Fix,GT,37.4641877000,-122.1469747000,-23.606746764729905,34.76326,0.1,306.1917,1593045823440,,,,
Fix,GT,37.4643734000,-122.1472932000,-23.381383986388073,35.0484,0.1,306.3625,1593045824440,,,,
Fix,GT,37.4645614000,-122.1476134000,-23.24870634255649,35.339134,0.1,306.5108,1593045825440,,,,
Fix,GT,37.4647508000,-122.1479367000,-23.176572727867892,35.626183,0.1,306.12274,1593045826440,,,,
Fix,GT,37.4649400000,-122.1482639000,-23.142848074556923,35.86419,0.1,306.01315,1593045827440,,,,
Fix,GT,37.4651307000,-122.1485923000,-23.179486218329714,36.0073,0.1,306.25473,1593045828440,,,,
Fix,GT,37.4653228000,-122.1489205000,-23.286350928306945,36.005775,0.1,306.39746,1593045829440,,,,
Fix,GT,37.4655158000,-122.1492480000,-23.443399111039298,36.10095,0.1,306.6904,1593045830440,,,,
Fix,GT,37.4657106000,-122.1495760000,-23.635169667252626,36.28461,0.1,306.62125,1593045831440,,,,
Fix,GT,37.4659051000,-122.1499068000,-23.76648469600775,36.4426,0.1,306.283,1593045832440,,,,
Fix,GT,37.4660998000,-122.1502394000,-23.927990420614265,36.537067,0.1,306.38727,1593045833440,,,,
Fix,GT,37.4662954000,-122.1505720000,-24.09135260977024,36.589973,0.1,306.47473,1593045834440,,,,
Fix,GT,37.4664909000,-122.1509053000,-24.23735251493889,36.62747,0.1,306.23697,1593045835440,,,,
Fix,GT,37.4666857000,-122.1512389000,-24.38907722985647,36.548378,0.1,306.3396,1593045836440,,,,
Fix,GT,37.4668805000,-122.1515715000,-24.49894283190133,36.459564,0.1,306.3536,1593045837440,,,,
Fix,GT,37.4670744000,-122.1519033000,-24.59330399792907,36.33137,0.1,306.26096,1593045838440,,,,
Fix,GT,37.4672680000,-122.1522335000,-24.68939931584123,36.183487,0.1,306.5138,1593045839440,,,,
Fix,GT,37.4674616000,-122.1525616000,-24.792122386105007,36.055435,0.1,306.63727,1593045840440,,,,
Fix,GT,37.4676554000,-122.1528879000,-24.900895345341837,35.924355,0.1,306.74908,1593045841440,,,,
Fix,GT,37.4678478000,-122.1532129000,-24.90775392044202,35.670853,0.1,306.68704,1593045842440,,,,
Fix,GT,37.4680393000,-122.1535337000,-24.880391047612193,35.22033,0.1,307.08774,1593045843440,,,,
Fix,GT,37.4682293000,-122.1538492000,-24.835297474533036,34.749268,0.1,307.10138,1593045844440,,,,
Fix,GT,37.4684163000,-122.1541615000,-24.841209697237787,34.37356,0.1,306.71683,1593045845440,,,,
Fix,GT,37.4686000000,-122.1544731000,-24.795754032795003,34.220726,0.1,306.29315,1593045846440,,,,
Fix,GT,37.4687819000,-122.1547852000,-24.790982277092894,34.16897,0.1,306.16983,1593045847440,,,,
Fix,GT,37.4689630000,-122.1550970000,-24.834439387117186,34.09228,0.1,306.0622,1593045848440,,,,
Fix,GT,37.4691439000,-122.1554078000,-24.86075457653709,34.014606,0.1,306.29004,1593045849440,,,,
Fix,GT,37.4693248000,-122.1557176000,-24.859574069565667,33.940025,0.1,306.24582,1593045850440,,,,
Fix,GT,37.4695050000,-122.1560272000,-24.873123546214515,33.886963,0.1,306.03906,1593045851440,,,,
Fix,GT,37.4696840000,-122.1563374000,-24.84416209998824,33.857,0.1,305.81265,1593045852440,,,,
Fix,GT,37.4698624000,-122.1566470000,-24.871390660071143,33.706856,0.1,306.07962,1593045853440,,,,
Fix,GT,37.4700405000,-122.1569535000,-24.89561861268237,33.439472,0.1,306.2261,1593045854440,,,,
Fix,GT,37.4702179000,-122.1572574000,-24.8934393883103,33.17349,0.1,306.35114,1593045855440,,,,
Fix,GT,37.4703945000,-122.1575583000,-24.933619459568263,32.954727,0.1,306.44,1593045856440,,,,
Fix,GT,37.4705704000,-122.1578575000,-24.967343489082566,32.807014,0.1,306.47455,1593045857440,,,,
Fix,GT,37.4707457000,-122.1581549000,-24.994210308838774,32.635548,0.1,306.59793,1593045858440,,,,
Fix,GT,37.4709209000,-122.1584508000,-25.02584779626227,32.59169,0.1,306.7361,1593045859440,,,,
Fix,GT,37.4710961000,-122.1587460000,-25.06002922454263,32.557915,0.1,306.6424,1593045860440,,,,
Fix,GT,37.4712706000,-122.1590418000,-25.10462010882202,32.51406,0.1,306.46835,1593045861440,,,,
